{"type":"FeatureCollection","features":[{"type":"Feature","properties":{"marker-color":"#000000FF","marker-size":"medium","marker-symbol":"","Name":"Asian Centre"},"geometry":{"type":"Point","coordinates":[-123.25867831707001,49.26677541843294]}},{"type":"Feature","properties":{"marker-color":"#000000FF","marker-size":"","marker-symbol":"","Name":"Geography Building"},"geometry":{"type":"Point","coordinates":[-123.25632870197295,49.266103320508385]}},{"type":"Feature","properties":{"marker-color":"#000000FF","marker-size":"","marker-symbol":"","Name":"Iona Building"},"geometry":{"type":"Point","coordinates":[-123.25033664703369,49.27107732839621]}},{"type":"Feature","properties":{"marker-color":"#000000FF","marker-size":"","marker-symbol":"","Name":"Irving K. Barber Learning Centre"},"geometry":{"type":"Point","coordinates":[-123.25275868177414,49.2675560206766]}},{"type":"Feature","properties":{"Name":"Museum of Anthropology","marker-color":"#000000FF"},"geometry":{"type":"Point","coordinates":[-123.25943738222124,49.269549475745094]}},{"type":"Feature","properties":{"Name":"Old Auditorium","marker-color":"#000000FF"},"geometry":{"type":"Point","coordinates":[-123.25596392154692,49.266952192668455]}},{"type":"Feature","properties":{"Name":"Douglas T. Kenny Building","marker-color":"#000000FF"},"geometry":{"type":"Point","coordinates":[-123.25387716293336,49.26322229703074]}},{"type":"Feature","properties":{"Name":"Global Lounge","marker-color":"#000000FF"},"geometry":{"type":"Point","coordinates":[-123.25591832399367,49.262000524254574]}},{"type":"Feature","properties":{"Name":"Beaty Biodiversity Museum","marker-color":"#000000FF"},"geometry":{"type":"Point","coordinates":[-123.25100988149642,49.26331681687313]}},{"type":"Feature","properties":{"Name":"Michael Smith Laboratories","marker-color":"#000000FF"},"geometry":{"type":"Point","coordinates":[-123.24991017580032,49.2644720447622]}}]}